{
    "metadata": [
        {
            "names": "Abidjan",
            "Latitude": 5.36,
            "Longitude": -4.0083,
            "aqi": 76,
            "DominantPollutant": "pm25",
            "datetime": "2020-04-21 20:00:00"
        },
        {
            "names": "ACCRA",
            "Latitude": 5.580642,
            "Longitude": -0.170724,
            "aqi": 63,
            "DominantPollutant": "pm25",
            "datetime": "2020-04-21 20:00:00"
        },
        {
            "names": "Adana",
            "Latitude": 37.0040545100691,
            "Longitude": 35.3440100793125,
            "aqi": 20,
            "DominantPollutant": "pm10",
            "datetime": "2020-04-15 10:00:00"
        },
        {
            "names": "ADDIS ABABA",
            "Latitude": 9.058498,
            "Longitude": 38.761642,
            "aqi": 76,
            "DominantPollutant": "pm25",
            "datetime": "2020-04-21 23:00:00"
        },
        {
            "names": "Adelaide",
            "Latitude": -34.929051,
            "Longitude": 138.601092,
            "aqi": 34,
            "DominantPollutant": "pm25",
            "datetime": "2020-04-22 05:00:00"
        },
        {
            "names": "Agra",
            "Latitude": 27.19865833,
            "Longitude": 78.00598056,
            "aqi": 157,
            "DominantPollutant": "pm25",
            "datetime": "2020-04-21 21:00:00"
        },
        {
            "names": "Ahmadabad",
            "Latitude": 22.9987886,
            "Longitude": 72.6029661,
            "aqi": 152,
            "DominantPollutant": "pm25",
            "datetime": "2020-04-22 02:00:00"
        },
        {
            "names": "Alexandria",
            "Latitude": 38.8577,
            "Longitude": -77.05922,
            "aqi": 18,
            "DominantPollutant": "o3",
            "datetime": "2020-04-21 16:00:00"
        },
        {
            "names": "ALGIERS",
            "Latitude": 36.7558,
            "Longitude": 3.039114,
            "aqi": 61,
            "DominantPollutant": "pm25",
            "datetime": "2020-04-21 21:00:00"
        },
        {
            "names": "ALMATY",
            "Latitude": 43.222,
            "Longitude": 76.851,
            "aqi": 25,
            "DominantPollutant": "pm25",
            "datetime": "2020-04-22 02:00:00"
        },
        {
            "names": "AMMAN",
            "Latitude": 31.93544,
            "Longitude": 35.94458,
            "aqi": 37,
            "DominantPollutant": "pm10",
            "datetime": "2020-04-21 21:00:00"
        },
        {
            "names": "Amritsar",
            "Latitude": 31.6199803,
            "Longitude": 74.8764849,
            "aqi": 32,
            "DominantPollutant": "pm25",
            "datetime": "2020-04-22 03:00:00"
        },
        {
            "names": "ANKARA",
            "Latitude": 39.92727454762165,
            "Longitude": 32.85941127954306,
            "aqi": 63,
            "DominantPollutant": "pm25",
            "datetime": "2020-04-21 22:00:00"
        },
        {
            "names": "Anshan",
            "Latitude": 41.108546,
            "Longitude": 122.994646,
            "aqi": 94,
            "DominantPollutant": "pm10",
            "datetime": "2020-04-22 05:00:00"
        },
        {
            "names": "BAGHDAD",
            "Latitude": 33.3128,
            "Longitude": 44.3615,
            "aqi": 155,
            "DominantPollutant": "pm25",
            "datetime": "2020-04-21 23:00:00"
        },
        {
            "names": "Bangalore",
            "Latitude": 12.920984,
            "Longitude": 77.584908,
            "aqi": 53,
            "DominantPollutant": "pm25",
            "datetime": "2020-04-22 02:00:00"
        },
        {
            "names": "BANGKOK",
            "Latitude": 13.7563309,
            "Longitude": 100.5017651,
            "aqi": 59,
            "DominantPollutant": "pm25",
            "datetime": "2020-04-22 03:00:00"
        },
        {
            "names": "Baotou",
            "Latitude": 40.657449,
            "Longitude": 109.840347,
            "aqi": 68,
            "DominantPollutant": "pm25",
            "datetime": "2020-04-22 05:00:00"
        },
        {
            "names": "Barcelona",
            "Latitude": 41.38534,
            "Longitude": 2.153822,
            "aqi": 5,
            "DominantPollutant": "pm10",
            "datetime": "2020-04-21 22:00:00"
        },
        {
            "names": "BEIJING",
            "Latitude": 39.954592,
            "Longitude": 116.468117,
            "aqi": 17,
            "DominantPollutant": "pm25",
            "datetime": "2020-04-22 05:00:00"
        },
        {
            "names": "Belem",
            "Latitude": 31.768319,
            "Longitude": 35.21371,
            "aqi": 70,
            "DominantPollutant": "pm25",
            "datetime": "2020-04-21 21:00:00"
        },
        {
            "names": "BELGRADE",
            "Latitude": 44.79880556,
            "Longitude": 20.450305555556,
            "aqi": 54,
            "DominantPollutant": "pm25",
            "datetime": "2020-04-21 22:00:00"
        },
        {
            "names": "BERLIN",
            "Latitude": 52.5200066,
            "Longitude": 13.404954,
            "aqi": 51,
            "DominantPollutant": "pm10",
            "datetime": "2020-04-21 23:00:00"
        },
        {
            "names": "Bhopal",
            "Latitude": 23.233584,
            "Longitude": 77.400574,
            "aqi": 161,
            "DominantPollutant": "pm25",
            "datetime": "2020-04-22 02:00:00"
        },
        {
            "names": "Birmingham",
            "Latitude": 52.486243,
            "Longitude": -1.890401,
            "aqi": 52,
            "DominantPollutant": "pm25",
            "datetime": "2020-04-21 21:00:00"
        },
        {
            "names": "BOGOTA",
            "Latitude": 4.5725,
            "Longitude": -74.0836,
            "aqi": 67,
            "DominantPollutant": "pm25",
            "datetime": "2020-04-21 15:00:00"
        },
        {
            "names": "BRASILIA",
            "Latitude": -23.618442773,
            "Longitude": -46.556353938,
            "aqi": 72,
            "DominantPollutant": "pm25",
            "datetime": "2020-04-21 18:00:00"
        },
        {
            "names": "Brisbane",
            "Latitude": -27.4774,
            "Longitude": 153.028,
            "aqi": 72,
            "DominantPollutant": "pm25",
            "datetime": "2020-04-22 07:00:00"
        },
        {
            "names": "BUCHAREST",
            "Latitude": 44.435029,
            "Longitude": 26.098609,
            "aqi": 16,
            "DominantPollutant": "pm10",
            "datetime": "2020-04-22 00:00:00"
        },
        {
            "names": "BUDAPEST",
            "Latitude": 47.508605,
            "Longitude": 19.02764,
            "aqi": 44,
            "DominantPollutant": "pm25",
            "datetime": "2020-04-21 22:00:00"
        },
        {
            "names": "BUENOS AIRES",
            "Latitude": -34.657988,
            "Longitude": -58.342538,
            "aqi": 57,
            "DominantPollutant": "pm25",
            "datetime": "2020-04-21 17:00:00"
        },
        {
            "names": "Bursa",
            "Latitude": 40.19572,
            "Longitude": 29.04588,
            "aqi": 74,
            "DominantPollutant": "pm25",
            "datetime": "2020-04-21 22:00:00"
        },
        {
            "names": "Busan",
            "Latitude": 35.1795543,
            "Longitude": 129.0756416,
            "aqi": 34,
            "DominantPollutant": "pm25",
            "datetime": "2020-04-22 06:00:00"
        },
        {
            "names": "Campinas",
            "Latitude": -22.902524804,
            "Longitude": -47.057210743,
            "aqi": 22,
            "DominantPollutant": "pm10",
            "datetime": "2020-04-21 18:00:00"
        },
        {
            "names": "Changchun",
            "Latitude": 43.816964,
            "Longitude": 125.323471,
            "aqi": 13,
            "DominantPollutant": "pm25",
            "datetime": "2020-04-22 05:00:00"
        },
        {
            "names": "Changsha",
            "Latitude": 28.228209,
            "Longitude": 112.938814,
            "aqi": 137,
            "DominantPollutant": "pm25",
            "datetime": "2020-04-22 04:00:00"
        },
        {
            "names": "Changzhou",
            "Latitude": 31.810077,
            "Longitude": 119.974454,
            "aqi": 80,
            "DominantPollutant": "pm25",
            "datetime": "2020-04-22 04:00:00"
        },
        {
            "names": "Chelyabinsk",
            "Latitude": 55.17616,
            "Longitude": 61.48267,
            "aqi": 62,
            "DominantPollutant": "pm25",
            "datetime": "2020-04-21 22:00:00"
        },
        {
            "names": "Chengdu",
            "Latitude": 30.6250145,
            "Longitude": 104.0670559,
            "aqi": 70,
            "DominantPollutant": "pm25",
            "datetime": "2020-04-22 05:00:00"
        },
        {
            "names": "Chennai",
            "Latitude": 13.08784,
            "Longitude": 80.27847,
            "aqi": 38,
            "DominantPollutant": "pm25",
            "datetime": "2020-04-21 21:00:00"
        },
        {
            "names": "Chicago",
            "Latitude": 41.9136,
            "Longitude": -87.7239,
            "aqi": "-",
            "DominantPollutant": "",
            "datetime": "2020-04-16 13:00:00"
        },
        {
            "names": "CONAKRY",
            "Latitude": 9.5951,
            "Longitude": -13.6364,
            "aqi": 117,
            "DominantPollutant": "pm25",
            "datetime": "2020-04-21 20:00:00"
        },
        {
            "names": "COPENHAGEN",
            "Latitude": 55.6750137,
            "Longitude": 12.5693995,
            "aqi": 25,
            "DominantPollutant": "o3",
            "datetime": "2020-04-21 21:00:00"
        },
        {
            "names": "Cordoba",
            "Latitude": 37.8935004,
            "Longitude": -4.7711062,
            "aqi": 31,
            "DominantPollutant": "o3",
            "datetime": "2020-04-21 20:00:00"
        },
        {
            "names": "Daegu",
            "Latitude": 35.8714354,
            "Longitude": 128.601445,
            "aqi": 53,
            "DominantPollutant": "pm25",
            "datetime": "2020-04-22 06:00:00"
        },
        {
            "names": "Daejon",
            "Latitude": 36.3504119,
            "Longitude": 127.3845475,
            "aqi": 43,
            "DominantPollutant": "pm10",
            "datetime": "2020-04-22 06:00:00"
        },
        {
            "names": "Dalian",
            "Latitude": 38.914003,
            "Longitude": 121.614682,
            "aqi": 60,
            "DominantPollutant": "pm10",
            "datetime": "2020-04-22 05:00:00"
        },
        {
            "names": "Dallas",
            "Latitude": 32.8200608,
            "Longitude": -96.8601165,
            "aqi": 52,
            "DominantPollutant": "pm25",
            "datetime": "2020-04-21 10:00:00"
        },
        {
            "names": "Datong",
            "Latitude": 40.076816,
            "Longitude": 113.300126,
            "aqi": 86,
            "DominantPollutant": "pm10",
            "datetime": "2020-04-22 05:00:00"
        },
        {
            "names": "DELHI",
            "Latitude": 28.63576,
            "Longitude": 77.22445,
            "aqi": 152,
            "DominantPollutant": "pm25",
            "datetime": "2020-04-22 02:00:00"
        },
        {
            "names": "DHAKA",
            "Latitude": 23.796373,
            "Longitude": 90.424614,
            "aqi": 154,
            "DominantPollutant": "pm25",
            "datetime": "2020-04-22 02:00:00"
        },
        {
            "names": "Dnipropetrovsk",
            "Latitude": 48.458139,
            "Longitude": 35.052214,
            "aqi": 18,
            "DominantPollutant": "pm25",
            "datetime": "2020-04-22 01:00:00"
        },
        {
            "names": "Durban",
            "Latitude": -29.858283,
            "Longitude": 31.027286,
            "aqi": 65,
            "DominantPollutant": "pm25",
            "datetime": "2020-04-21 23:00:00"
        },
        {
            "names": "Ecatepec",
            "Latitude": 19.532968,
            "Longitude": -99.030324,
            "aqi": 71,
            "DominantPollutant": "o3",
            "datetime": "2020-04-21 16:00:00"
        },
        {
            "names": "Foshan",
            "Latitude": 23.021548,
            "Longitude": 113.121416,
            "aqi": 57,
            "DominantPollutant": "pm25",
            "datetime": "2020-04-22 04:00:00"
        },
        {
            "names": "Fukuoka",
            "Latitude": 33.5903547,
            "Longitude": 130.4017155,
            "aqi": 38,
            "DominantPollutant": "pm25",
            "datetime": "2020-04-22 05:00:00"
        },
        {
            "names": "Fuzhou",
            "Latitude": 26.074508,
            "Longitude": 119.296494,
            "aqi": 34,
            "DominantPollutant": "pm25",
            "datetime": "2020-04-22 05:00:00"
        },
        {
            "names": "Guadalajara",
            "Latitude": 20.680450840176,
            "Longitude": -103.39873310432,
            "aqi": 54,
            "DominantPollutant": "o3",
            "datetime": "2020-04-21 16:00:00"
        },
        {
            "names": "Guangzhou",
            "Latitude": 23.141191,
            "Longitude": 113.258374,
            "aqi": 38,
            "DominantPollutant": "pm25",
            "datetime": "2020-04-22 05:00:00"
        },
        {
            "names": "Guarulhos",
            "Latitude": -23.455534258,
            "Longitude": -46.518533403,
            "aqi": 78,
            "DominantPollutant": "pm25",
            "datetime": "2020-04-21 18:00:00"
        },
        {
            "names": "Guiyang",
            "Latitude": 26.647661,
            "Longitude": 106.630154,
            "aqi": 59,
            "DominantPollutant": "pm25",
            "datetime": "2020-04-22 04:00:00"
        },
        {
            "names": "Gwangju",
            "Latitude": 35.1595454,
            "Longitude": 126.8526012,
            "aqi": 67,
            "DominantPollutant": "pm10",
            "datetime": "2020-04-22 06:00:00"
        },
        {
            "names": "Haiphong",
            "Latitude": 21.0357507,
            "Longitude": 106.7641068,
            "aqi": 14,
            "DominantPollutant": "pm25",
            "datetime": "2020-04-22 03:00:00"
        },
        {
            "names": "Hamburg",
            "Latitude": 53.59235,
            "Longitude": 10.053724,
            "aqi": 30,
            "DominantPollutant": "o3",
            "datetime": "2020-04-21 22:00:00"
        },
        {
            "names": "Handan",
            "Latitude": 36.625604,
            "Longitude": 114.539085,
            "aqi": 137,
            "DominantPollutant": "pm25",
            "datetime": "2020-04-22 04:00:00"
        },
        {
            "names": "Hangzhou",
            "Latitude": 30.274085,
            "Longitude": 120.15507,
            "aqi": 89,
            "DominantPollutant": "pm25",
            "datetime": "2020-04-22 04:00:00"
        },
        {
            "names": "HANOI",
            "Latitude": 21.0215063,
            "Longitude": 105.8188748,
            "aqi": 112,
            "DominantPollutant": "pm25",
            "datetime": "2020-04-22 03:00:00"
        },
        {
            "names": "Haora",
            "Latitude": 22.5707053,
            "Longitude": 88.3008448,
            "aqi": 66,
            "DominantPollutant": "pm25",
            "datetime": "2020-04-22 02:00:00"
        },
        {
            "names": "Harbin",
            "Latitude": 45.7258,
            "Longitude": 126.646,
            "aqi": 17,
            "DominantPollutant": "pm25",
            "datetime": "2020-04-22 04:00:00"
        },
        {
            "names": "Hefei",
            "Latitude": 31.821448,
            "Longitude": 117.227271,
            "aqi": 85,
            "DominantPollutant": "pm25",
            "datetime": "2020-04-22 04:00:00"
        },
        {
            "names": "Hiroshima",
            "Latitude": 34.3852029,
            "Longitude": 132.4552927,
            "aqi": 25,
            "DominantPollutant": "pm25",
            "datetime": "2020-04-22 05:00:00"
        },
        {
            "names": "Ho Chi Minh",
            "Latitude": 10.782978,
            "Longitude": 106.700711,
            "aqi": 42,
            "DominantPollutant": "pm25",
            "datetime": "2020-04-22 03:00:00"
        },
        {
            "names": "Hong Kong",
            "Latitude": 22.2796569,
            "Longitude": 114.1719873,
            "aqi": 48,
            "DominantPollutant": "pm25",
            "datetime": "2020-04-22 05:00:00"
        },
        {
            "names": "Houston",
            "Latitude": 29.686389,
            "Longitude": -95.294722,
            "aqi": 42,
            "DominantPollutant": "o3",
            "datetime": "2020-04-21 15:00:00"
        },
        {
            "names": "Hyderabad",
            "Latitude": 17.38405,
            "Longitude": 78.45636,
            "aqi": 74,
            "DominantPollutant": "pm25",
            "datetime": "2020-04-22 02:00:00"
        },
        {
            "names": "Hyderabad",
            "Latitude": 17.38405,
            "Longitude": 78.45636,
            "aqi": 74,
            "DominantPollutant": "pm25",
            "datetime": "2020-04-22 02:00:00"
        },
        {
            "names": "Incheon",
            "Latitude": 37.4562557,
            "Longitude": 126.7052062,
            "aqi": 67,
            "DominantPollutant": "pm10",
            "datetime": "2020-04-22 06:00:00"
        },
        {
            "names": "Indore",
            "Latitude": 22.719444,
            "Longitude": 75.870278,
            "aqi": 140,
            "DominantPollutant": "pm10",
            "datetime": "2020-04-22 02:00:00"
        },
        {
            "names": "Istanbul",
            "Latitude": 41.014722,
            "Longitude": 28.954722,
            "aqi": 29,
            "DominantPollutant": "pm10",
            "datetime": "2020-04-21 23:00:00"
        },
        {
            "names": "Izmir",
            "Latitude": 38.432222,
            "Longitude": 27.144444,
            "aqi": 29,
            "DominantPollutant": "pm10",
            "datetime": "2020-04-21 22:00:00"
        },
        {
            "names": "Jaipur",
            "Latitude": 26.9405166,
            "Longitude": 75.8007016,
            "aqi": 77,
            "DominantPollutant": "pm25",
            "datetime": "2020-04-22 02:00:00"
        },
        {
            "names": "JAKARTA",
            "Latitude": -6.182536,
            "Longitude": 106.834236,
            "aqi": 194,
            "DominantPollutant": "pm25",
            "datetime": "2020-04-22 03:00:00"
        },
        {
            "names": "Jeddah",
            "Latitude": 21.524667,
            "Longitude": 39.203088,
            "aqi": 17,
            "DominantPollutant": "pm10",
            "datetime": "2020-04-21 00:50:00"
        },
        {
            "names": "Jilin",
            "Latitude": 43.837883,
            "Longitude": 126.549572,
            "aqi": 46,
            "DominantPollutant": "pm25",
            "datetime": "2020-04-22 05:00:00"
        },
        {
            "names": "Jinan",
            "Latitude": 36.650997,
            "Longitude": 117.120497,
            "aqi": 68,
            "DominantPollutant": "pm10",
            "datetime": "2020-04-22 04:00:00"
        },
        {
            "names": "Johannesburg",
            "Latitude": -26.178666,
            "Longitude": 28.13314,
            "aqi": 82,
            "DominantPollutant": "pm25",
            "datetime": "2020-04-21 23:00:00"
        },
        {
            "names": "KABUL",
            "Latitude": 34.554382,
            "Longitude": 69.2046,
            "aqi": 154,
            "DominantPollutant": "pm25",
            "datetime": "2020-04-22 01:00:00"
        },
        {
            "names": "Kanpur",
            "Latitude": 26.4703088,
            "Longitude": 80.3251749,
            "aqi": 115,
            "DominantPollutant": "pm25",
            "datetime": "2020-04-22 02:00:00"
        },
        {
            "names": "Kaohsiung",
            "Latitude": 22.608711,
            "Longitude": 120.312017,
            "aqi": 87,
            "DominantPollutant": "pm25",
            "datetime": "2020-04-22 05:00:00"
        },
        {
            "names": "Karachi",
            "Latitude": 24.8415,
            "Longitude": 67.0091,
            "aqi": 66,
            "DominantPollutant": "pm25",
            "datetime": "2020-04-21 16:00:00"
        },
        {
            "names": "Kawasaki",
            "Latitude": 35.5309058,
            "Longitude": 139.7030511,
            "aqi": 38,
            "DominantPollutant": "pm25",
            "datetime": "2020-04-22 05:00:00"
        },
        {
            "names": "KIEV",
            "Latitude": 50.444,
            "Longitude": 30.54,
            "aqi": 10,
            "DominantPollutant": "pm25",
            "datetime": "2020-04-22 01:00:00"
        },
        {
            "names": "Kitakyushu",
            "Latitude": 33.8834093,
            "Longitude": 130.8752161,
            "aqi": "-",
            "DominantPollutant": "",
            "datetime": "2020-04-21 20:00:00"
        },
        {
            "names": "Kobe",
            "Latitude": 34.690083,
            "Longitude": 135.1955112,
            "aqi": 57,
            "DominantPollutant": "pm25",
            "datetime": "2020-04-22 06:00:00"
        },
        {
            "names": "Kolkata",
            "Latitude": 22.56263,
            "Longitude": 88.36304,
            "aqi": 55,
            "DominantPollutant": "pm25",
            "datetime": "2020-04-22 02:00:00"
        },
        {
            "names": "Kowloon",
            "Latitude": 22.396428,
            "Longitude": 114.109497,
            "aqi": 48,
            "DominantPollutant": "pm25",
            "datetime": "2020-04-22 05:00:00"
        },
        {
            "names": "KUALA LUMPUR",
            "Latitude": 3.139003,
            "Longitude": 101.686855,
            "aqi": 58,
            "DominantPollutant": "",
            "datetime": "2020-04-22 05:00:00"
        },
        {
            "names": "Kunming",
            "Latitude": 24.880182,
            "Longitude": 102.832861,
            "aqi": 114,
            "DominantPollutant": "pm25",
            "datetime": "2020-04-22 05:00:00"
        },
        {
            "names": "Kyoto",
            "Latitude": 35.0116363,
            "Longitude": 135.7680294,
            "aqi": 55,
            "DominantPollutant": "pm25",
            "datetime": "2020-04-22 05:00:00"
        },
        {
            "names": "Lahore",
            "Latitude": 31.560078,
            "Longitude": 74.33589,
            "aqi": 201,
            "DominantPollutant": "pm25",
            "datetime": "2020-04-22 01:00:00"
        },
        {
            "names": "Lanzhou",
            "Latitude": 36.061255,
            "Longitude": 103.834377,
            "aqi": 80,
            "DominantPollutant": "pm25",
            "datetime": "2020-04-22 04:00:00"
        },
        {
            "names": "Leon",
            "Latitude": 42.603888888889,
            "Longitude": -5.587222222222,
            "aqi": 32,
            "DominantPollutant": "o3",
            "datetime": "2020-04-21 20:00:00"
        },
        {
            "names": "LIMA",
            "Latitude": -12.07053,
            "Longitude": -77.04317,
            "aqi": 40,
            "DominantPollutant": "pm25",
            "datetime": "2020-04-21 16:00:00"
        },
        {
            "names": "LONDON",
            "Latitude": 51.5073509,
            "Longitude": -0.1277583,
            "aqi": 46,
            "DominantPollutant": "pm25",
            "datetime": "2020-04-21 20:00:00"
        },
        {
            "names": "Los Angeles",
            "Latitude": 34.06653,
            "Longitude": -118.22676,
            "aqi": 34,
            "DominantPollutant": "pm25",
            "datetime": "2020-04-21 13:00:00"
        },
        {
            "names": "Lucknow",
            "Latitude": 26.84578611,
            "Longitude": 80.93874444,
            "aqi": 152,
            "DominantPollutant": "pm25",
            "datetime": "2020-04-22 02:00:00"
        },
        {
            "names": "Ludhiana",
            "Latitude": 30.9019147,
            "Longitude": 75.8077749,
            "aqi": 50,
            "DominantPollutant": "pm25",
            "datetime": "2020-04-22 02:00:00"
        },
        {
            "names": "Luoyang",
            "Latitude": 34.618452,
            "Longitude": 112.45429,
            "aqi": 124,
            "DominantPollutant": "pm25",
            "datetime": "2020-04-22 05:00:00"
        },
        {
            "names": "MADRID",
            "Latitude": 40.4167754,
            "Longitude": -3.7037902,
            "aqi": 21,
            "DominantPollutant": "pm25",
            "datetime": "2020-04-21 22:00:00"
        },
        {
            "names": "MANILA",
            "Latitude": 14.5995124,
            "Longitude": 120.9842195,
            "aqi": "-",
            "DominantPollutant": "",
            "datetime": ""
        },
        {
            "names": "Mashhad",
            "Latitude": 36.3382,
            "Longitude": 59.5853,
            "aqi": 70,
            "DominantPollutant": "pm25",
            "datetime": "2020-04-22 00:00:00"
        },
        {
            "names": "Mecca",
            "Latitude": 21.42463611,
            "Longitude": 39.82916667,
            "aqi": 79,
            "DominantPollutant": "pm10",
            "datetime": "2020-04-21 00:50:00"
        },
        {
            "names": "Medan",
            "Latitude": 3.5951956,
            "Longitude": 98.6722227,
            "aqi": 26,
            "DominantPollutant": "pm10",
            "datetime": "2020-04-02 16:00:00"
        },
        {
            "names": "Medellin",
            "Latitude": 6.252763,
            "Longitude": -75.569404,
            "aqi": 72,
            "DominantPollutant": "pm25",
            "datetime": "2020-04-21 15:00:00"
        },
        {
            "names": "Medina",
            "Latitude": 24.491075,
            "Longitude": 39.58805556,
            "aqi": 22,
            "DominantPollutant": "pm10",
            "datetime": "2019-08-27 09:00:00"
        },
        {
            "names": "Meerut",
            "Latitude": 29.06351,
            "Longitude": 77.709723,
            "aqi": 184,
            "DominantPollutant": "pm25",
            "datetime": "2020-04-22 02:00:00"
        },
        {
            "names": "Melbourne",
            "Latitude": -37.8073959,
            "Longitude": 144.97,
            "aqi": 25,
            "DominantPollutant": "pm25",
            "datetime": "2020-04-22 07:00:00"
        },
        {
            "names": "Mexicali",
            "Latitude": 32.603638888889,
            "Longitude": -115.4859444444,
            "aqi": 181,
            "DominantPollutant": "pm25",
            "datetime": "2019-12-14 01:00:00"
        },
        {
            "names": "MEXICO CITY",
            "Latitude": 19.42461,
            "Longitude": -99.119594,
            "aqi": 107,
            "DominantPollutant": "pm25",
            "datetime": "2020-04-21 15:00:00"
        },
        {
            "names": "Milan",
            "Latitude": 45.470501,
            "Longitude": 9.19746075,
            "aqi": 34,
            "DominantPollutant": "pm25",
            "datetime": "2020-04-19 23:00:00"
        },
        {
            "names": "Monterrey",
            "Latitude": 25.73,
            "Longitude": -100.30972222222,
            "aqi": 70,
            "DominantPollutant": "pm10",
            "datetime": "2020-04-21 15:00:00"
        },
        {
            "names": "Montreal",
            "Latitude": 45.5086699,
            "Longitude": -73.5539925,
            "aqi": 9,
            "DominantPollutant": "pm25",
            "datetime": "2020-04-21 15:00:00"
        },
        {
            "names": "MOSCOW",
            "Latitude": 55.759354,
            "Longitude": 37.595584,
            "aqi": 38,
            "DominantPollutant": "pm25",
            "datetime": "2020-04-22 00:00:00"
        },
        {
            "names": "Mumbai",
            "Latitude": 19.07283,
            "Longitude": 72.88261,
            "aqi": 63,
            "DominantPollutant": "pm25",
            "datetime": "2020-04-22 02:00:00"
        },
        {
            "names": "Munich",
            "Latitude": 48.1351253,
            "Longitude": 11.5819806,
            "aqi": 20,
            "DominantPollutant": "pm10",
            "datetime": "2020-04-21 20:00:00"
        },
        {
            "names": "Nagoya",
            "Latitude": 35.1814464,
            "Longitude": 136.906398,
            "aqi": 55,
            "DominantPollutant": "pm25",
            "datetime": "2020-04-22 05:00:00"
        },
        {
            "names": "Nagpur",
            "Latitude": 21.152875,
            "Longitude": 79.0517531,
            "aqi": 58,
            "DominantPollutant": "pm25",
            "datetime": "2020-04-22 02:00:00"
        },
        {
            "names": "Nanchang",
            "Latitude": 28.683213,
            "Longitude": 115.858121,
            "aqi": 107,
            "DominantPollutant": "pm25",
            "datetime": "2020-04-22 04:00:00"
        },
        {
            "names": "Nanjing",
            "Latitude": 32.060255,
            "Longitude": 118.796877,
            "aqi": 85,
            "DominantPollutant": "pm25",
            "datetime": "2020-04-22 04:00:00"
        },
        {
            "names": "Nanning",
            "Latitude": 22.817239,
            "Longitude": 108.366129,
            "aqi": 89,
            "DominantPollutant": "pm25",
            "datetime": "2020-04-22 04:00:00"
        },
        {
            "names": "Napoli",
            "Latitude": 40.85361,
            "Longitude": 14.27167,
            "aqi": 43,
            "DominantPollutant": "pm25",
            "datetime": "2020-04-21 21:00:00"
        },
        {
            "names": "Nashik",
            "Latitude": 20.0073285,
            "Longitude": 73.7762427,
            "aqi": 60,
            "DominantPollutant": "pm25",
            "datetime": "2020-04-22 02:00:00"
        },
        {
            "names": "New York",
            "Latitude": 40.7143528,
            "Longitude": -74.0059731,
            "aqi": 10,
            "DominantPollutant": "pm25",
            "datetime": "2020-04-21 14:00:00"
        },
        {
            "names": "Nezahualcoyotl",
            "Latitude": 19.34561,
            "Longitude": -99.009381,
            "aqi": 114,
            "DominantPollutant": "pm25",
            "datetime": "2020-04-21 16:00:00"
        },
        {
            "names": "Nizhny Novgorod",
            "Latitude": 56.304354,
            "Longitude": 43.983103,
            "aqi": 12,
            "DominantPollutant": "o3",
            "datetime": "2020-04-21 22:00:00"
        },
        {
            "names": "Novosibirsk",
            "Latitude": 55.026021,
            "Longitude": 82.907958,
            "aqi": 205,
            "DominantPollutant": "pm25",
            "datetime": "2020-04-22 05:00:00"
        },
        {
            "names": "Odessa",
            "Latitude": 46.39984,
            "Longitude": 30.732417,
            "aqi": 22,
            "DominantPollutant": "pm25",
            "datetime": "2020-04-22 01:00:00"
        },
        {
            "names": "Osaka",
            "Latitude": 34.6937378,
            "Longitude": 135.5021651,
            "aqi": 38,
            "DominantPollutant": "pm25",
            "datetime": "2020-04-22 06:00:00"
        },
        {
            "names": "Palembang",
            "Latitude": -2.9760735,
            "Longitude": 104.7754307,
            "aqi": 4,
            "DominantPollutant": "pm10",
            "datetime": "2020-01-21 13:00:00"
        },
        {
            "names": "PARIS",
            "Latitude": 48.856614,
            "Longitude": 2.3522219,
            "aqi": 50,
            "DominantPollutant": "pm25",
            "datetime": "2020-04-21 22:00:00"
        },
        {
            "names": "Patna",
            "Latitude": 25.619651,
            "Longitude": 85.147382,
            "aqi": 61,
            "DominantPollutant": "pm25",
            "datetime": "2020-04-22 02:00:00"
        },
        {
            "names": "Perth",
            "Latitude": 56.396597,
            "Longitude": -3.4324,
            "aqi": 9,
            "DominantPollutant": "pm10",
            "datetime": "2020-04-21 19:00:00"
        },
        {
            "names": "Peshawar",
            "Latitude": 34.00585,
            "Longitude": 71.53775,
            "aqi": 152,
            "DominantPollutant": "pm25",
            "datetime": "2020-04-22 01:00:00"
        },
        {
            "names": "Philadelphia",
            "Latitude": 39.934635,
            "Longitude": -75.126126,
            "aqi": 53,
            "DominantPollutant": "pm25",
            "datetime": "2020-04-21 16:00:00"
        },
        {
            "names": "PHNOM PENH",
            "Latitude": 11.516002,
            "Longitude": 104.905362,
            "aqi": "-",
            "DominantPollutant": "",
            "datetime": ""
        },
        {
            "names": "Phoenix",
            "Latitude": 33.403055555556,
            "Longitude": -112.07527777778,
            "aqi": 39,
            "DominantPollutant": "o3",
            "datetime": "2020-04-21 14:00:00"
        },
        {
            "names": "PRAGUE",
            "Latitude": 50.094238,
            "Longitude": 14.442049,
            "aqi": 68,
            "DominantPollutant": "pm25",
            "datetime": "2020-04-21 22:00:00"
        },
        {
            "names": "Puebla",
            "Latitude": 18.987361111111,
            "Longitude": -98.277944444444,
            "aqi": 65,
            "DominantPollutant": "o3",
            "datetime": "2020-04-21 16:00:00"
        },
        {
            "names": "Pune",
            "Latitude": 18.536428,
            "Longitude": 73.805453,
            "aqi": 45,
            "DominantPollutant": "co",
            "datetime": "2020-04-22 02:00:00"
        },
        {
            "names": "Qingdao",
            "Latitude": 36.067082,
            "Longitude": 120.38264,
            "aqi": 63,
            "DominantPollutant": "pm25",
            "datetime": "2020-04-19 20:00:00"
        },
        {
            "names": "Qiqihar",
            "Latitude": 47.354348,
            "Longitude": 123.918186,
            "aqi": 38,
            "DominantPollutant": "pm25",
            "datetime": "2020-04-22 04:00:00"
        },
        {
            "names": "QUITO",
            "Latitude": -0.221393,
            "Longitude": -78.514005,
            "aqi": 57,
            "DominantPollutant": "pm25",
            "datetime": "2020-04-21 15:00:00"
        },
        {
            "names": "Rawalpindi",
            "Latitude": 33.7235,
            "Longitude": 73.11822,
            "aqi": 76,
            "DominantPollutant": "pm25",
            "datetime": "2020-04-22 02:00:00"
        },
        {
            "names": "RIYADH",
            "Latitude": 24.644942,
            "Longitude": 46.722333,
            "aqi": 29,
            "DominantPollutant": "o3",
            "datetime": "2020-04-21 00:50:00"
        },
        {
            "names": "ROME",
            "Latitude": 41.8932669,
            "Longitude": 12.4753855,
            "aqi": 34,
            "DominantPollutant": "pm25",
            "datetime": "2020-04-20 23:00:00"
        },
        {
            "names": "Salvador",
            "Latitude": 13.70630556,
            "Longitude": -89.20011667,
            "aqi": 80,
            "DominantPollutant": "pm25",
            "datetime": "2020-04-21 15:00:00"
        },
        {
            "names": "San Antonio",
            "Latitude": 29.4072945,
            "Longitude": -98.431251,
            "aqi": 50,
            "DominantPollutant": "pm25",
            "datetime": "2020-04-21 13:00:00"
        },
        {
            "names": "San Diego",
            "Latitude": 32.70148,
            "Longitude": -117.14962,
            "aqi": "-",
            "DominantPollutant": "",
            "datetime": "2020-01-26 21:00:00"
        },
        {
            "names": "Santa Cruz",
            "Latitude": 36.98401,
            "Longitude": -121.99097,
            "aqi": 26,
            "DominantPollutant": "o3",
            "datetime": "2020-04-21 12:00:00"
        },
        {
            "names": "SANTIAGO",
            "Latitude": -33.422301,
            "Longitude": -70.651162,
            "aqi": 65,
            "DominantPollutant": "pm25",
            "datetime": "2020-04-21 17:00:00"
        },
        {
            "names": "Sao Paulo",
            "Latitude": -23.544845659,
            "Longitude": -46.627675592,
            "aqi": 85,
            "DominantPollutant": "pm25",
            "datetime": "2020-04-21 18:00:00"
        },
        {
            "names": "Sapporo",
            "Latitude": 43.0620958,
            "Longitude": 141.3543763,
            "aqi": 34,
            "DominantPollutant": "pm25",
            "datetime": "2020-04-22 06:00:00"
        },
        {
            "names": "Sendai",
            "Latitude": 38.268215,
            "Longitude": 140.8693558,
            "aqi": 15,
            "DominantPollutant": "pm10",
            "datetime": "2020-04-22 04:00:00"
        },
        {
            "names": "Seongnam",
            "Latitude": 37.4449168,
            "Longitude": 127.1388684,
            "aqi": 60,
            "DominantPollutant": "pm10",
            "datetime": "2020-04-22 06:00:00"
        },
        {
            "names": "Seoul",
            "Latitude": 37.566535,
            "Longitude": 126.9779692,
            "aqi": 79,
            "DominantPollutant": "pm10",
            "datetime": "2020-04-22 06:00:00"
        },
        {
            "names": "Shanghai",
            "Latitude": 31.2047372,
            "Longitude": 121.4489017,
            "aqi": 61,
            "DominantPollutant": "pm25",
            "datetime": "2020-04-22 05:00:00"
        },
        {
            "names": "Shenyang",
            "Latitude": 41.805698,
            "Longitude": 123.431475,
            "aqi": 59,
            "DominantPollutant": "pm10",
            "datetime": "2020-04-22 04:00:00"
        },
        {
            "names": "Shenzhen",
            "Latitude": 22.543099,
            "Longitude": 114.057868,
            "aqi": 89,
            "DominantPollutant": "pm25",
            "datetime": "2020-04-22 05:00:00"
        },
        {
            "names": "Shiraz",
            "Latitude": 29.6092966,
            "Longitude": 52.5300873,
            "aqi": 89,
            "DominantPollutant": "pm25",
            "datetime": "2020-04-22 01:00:00"
        },
        {
            "names": "SINGAPORE",
            "Latitude": 1.296183,
            "Longitude": 103.846181,
            "aqi": 25,
            "DominantPollutant": "pm25",
            "datetime": "2020-04-22 05:00:00"
        },
        {
            "names": "SOFIA",
            "Latitude": 42.7325,
            "Longitude": 23.298611,
            "aqi": 12,
            "DominantPollutant": "o3",
            "datetime": "2020-04-21 23:00:00"
        },
        {
            "names": "Soweto",
            "Latitude": -26.252611,
            "Longitude": 27.872139,
            "aqi": 38,
            "DominantPollutant": "pm25",
            "datetime": "2020-04-21 16:00:00"
        },
        {
            "names": "St Petersburg",
            "Latitude": 59.96903,
            "Longitude": 30.28451,
            "aqi": 30,
            "DominantPollutant": "o3",
            "datetime": "2020-04-22 00:00:00"
        },
        {
            "names": "STOCKHOLM",
            "Latitude": 59.34082695028323,
            "Longitude": 18.05825368127835,
            "aqi": 17,
            "DominantPollutant": "pm10",
            "datetime": "2020-04-21 22:00:00"
        },
        {
            "names": "Suzhou",
            "Latitude": 31.298886,
            "Longitude": 120.585316,
            "aqi": 72,
            "DominantPollutant": "pm25",
            "datetime": "2020-04-22 04:00:00"
        },
        {
            "names": "Sydney",
            "Latitude": -33.872468,
            "Longitude": 151.213337,
            "aqi": 39,
            "DominantPollutant": "pm25",
            "datetime": "2020-04-21 15:00:00"
        },
        {
            "names": "Tabriz",
            "Latitude": 38.079304,
            "Longitude": 46.288699,
            "aqi": 92,
            "DominantPollutant": "co",
            "datetime": "2020-04-22 01:00:00"
        },
        {
            "names": "Taichung",
            "Latitude": 24.099611,
            "Longitude": 120.677689,
            "aqi": 32,
            "DominantPollutant": "o3",
            "datetime": "2020-04-22 05:00:00"
        },
        {
            "names": "TAIPEI",
            "Latitude": 25.062361,
            "Longitude": 121.526528,
            "aqi": 48,
            "DominantPollutant": "o3",
            "datetime": "2020-04-22 05:00:00"
        },
        {
            "names": "Taiyuan",
            "Latitude": 37.87059,
            "Longitude": 112.548879,
            "aqi": 53,
            "DominantPollutant": "pm25",
            "datetime": "2020-04-22 04:00:00"
        },
        {
            "names": "Tangshan",
            "Latitude": 39.630867,
            "Longitude": 118.180194,
            "aqi": 50,
            "DominantPollutant": "pm25",
            "datetime": "2020-04-22 04:00:00"
        },
        {
            "names": "TASHKENT",
            "Latitude": 41.3672,
            "Longitude": 69.2725,
            "aqi": 61,
            "DominantPollutant": "pm25",
            "datetime": "2020-04-22 02:00:00"
        },
        {
            "names": "TBILISI",
            "Latitude": 41.7017,
            "Longitude": 44.87564,
            "aqi": "-",
            "DominantPollutant": "",
            "datetime": ""
        },
        {
            "names": "TEHRAN",
            "Latitude": 35.703356,
            "Longitude": 51.397764,
            "aqi": 65,
            "DominantPollutant": "pm25",
            "datetime": "2020-04-22 01:00:00"
        },
        {
            "names": "Tianjin",
            "Latitude": 39.084158,
            "Longitude": 117.200983,
            "aqi": 38,
            "DominantPollutant": "pm25",
            "datetime": "2020-04-22 05:00:00"
        },
        {
            "names": "Tijuana",
            "Latitude": 32.528405555556,
            "Longitude": -116.92079444444,
            "aqi": 68,
            "DominantPollutant": "pm25",
            "datetime": "2019-09-23 10:00:00"
        },
        {
            "names": "TOKYO",
            "Latitude": 35.6414629,
            "Longitude": 139.6981712,
            "aqi": 17,
            "DominantPollutant": "pm10",
            "datetime": "2020-04-22 06:00:00"
        },
        {
            "names": "Toronto",
            "Latitude": 43.653226,
            "Longitude": -79.3831843,
            "aqi": 17,
            "DominantPollutant": "pm25",
            "datetime": "2020-04-21 17:00:00"
        },
        {
            "names": "TSHWANE",
            "Latitude": -25.740247,
            "Longitude": 28.170315,
            "aqi": 85,
            "DominantPollutant": "pm25",
            "datetime": "2020-04-21 23:00:00"
        },
        {
            "names": "Ufa",
            "Latitude": 55.03171,
            "Longitude": 55.97249,
            "aqi": 35,
            "DominantPollutant": "pm25",
            "datetime": "2020-04-21 22:00:00"
        },
        {
            "names": "Ulsan",
            "Latitude": 35.5383773,
            "Longitude": 129.3113596,
            "aqi": 25,
            "DominantPollutant": "pm25",
            "datetime": "2020-04-22 06:00:00"
        },
        {
            "names": "Urumqi",
            "Latitude": 43.825645,
            "Longitude": 87.616823,
            "aqi": 47,
            "DominantPollutant": "pm10",
            "datetime": "2020-04-22 04:00:00"
        },
        {
            "names": "Valencia",
            "Latitude": 39.458055555556,
            "Longitude": -0.37666666666667,
            "aqi": 23,
            "DominantPollutant": "o3",
            "datetime": "2020-04-21 20:00:00"
        },
        {
            "names": "Varanasi",
            "Latitude": 25.35055556,
            "Longitude": 82.97833333,
            "aqi": 88,
            "DominantPollutant": "pm25",
            "datetime": "2020-04-22 02:00:00"
        },
        {
            "names": "Vienna",
            "Latitude": 48.2167394444444,
            "Longitude": 16.3809180555556,
            "aqi": 53,
            "DominantPollutant": "pm25",
            "datetime": "2020-04-21 21:00:00"
        },
        {
            "names": "WARSAW",
            "Latitude": 52.225171,
            "Longitude": 21.014783,
            "aqi": 61,
            "DominantPollutant": "pm25",
            "datetime": "2020-04-21 21:00:00"
        },
        {
            "names": "Wuhan",
            "Latitude": 30.593099,
            "Longitude": 114.305393,
            "aqi": 102,
            "DominantPollutant": "pm25",
            "datetime": "2020-04-22 05:00:00"
        },
        {
            "names": "Wuxi",
            "Latitude": 31.490637,
            "Longitude": 120.311143,
            "aqi": 59,
            "DominantPollutant": "pm25",
            "datetime": "2020-04-22 04:00:00"
        },
        {
            "names": "Xian",
            "Latitude": 34.341568,
            "Longitude": 108.940175,
            "aqi": "-",
            "DominantPollutant": "",
            "datetime": ""
        },
        {
            "names": "Xuzhou",
            "Latitude": 34.20475,
            "Longitude": 117.284072,
            "aqi": 127,
            "DominantPollutant": "pm25",
            "datetime": "2020-04-22 04:00:00"
        },
        {
            "names": "Yangon",
            "Latitude": 16.8256,
            "Longitude": 96.1445,
            "aqi": 61,
            "DominantPollutant": "pm25",
            "datetime": "2020-04-22 03:00:00"
        },
        {
            "names": "Yokohama",
            "Latitude": 35.4437078,
            "Longitude": 139.6380256,
            "aqi": 55,
            "DominantPollutant": "pm25",
            "datetime": "2020-04-22 05:00:00"
        },
        {
            "names": "Zapopan",
            "Latitude": 20.680450840176,
            "Longitude": -103.39873310432,
            "aqi": 54,
            "DominantPollutant": "o3",
            "datetime": "2020-04-21 16:00:00"
        },
        {
            "names": "Zhengzhou",
            "Latitude": 34.7466,
            "Longitude": 113.625368,
            "aqi": 89,
            "DominantPollutant": "pm25",
            "datetime": "2020-04-22 04:00:00"
        },
        {
            "names": "Zibo",
            "Latitude": 36.813094,
            "Longitude": 118.054868,
            "aqi": 80,
            "DominantPollutant": "pm25",
            "datetime": "2020-04-22 04:00:00"
        },
        {
            "names": "San Jose",
            "Latitude": 37.34849,
            "Longitude": -121.89494,
            "aqi": 30,
            "DominantPollutant": "o3",
            "datetime": "2020-04-21 13:00:00"
        },
        {
            "names": "Austin",
            "Latitude": 30.2632079,
            "Longitude": -97.7128831,
            "aqi": 61,
            "DominantPollutant": "pm25",
            "datetime": "2020-04-21 14:00:00"
        },
        {
            "names": "Jacksonville",
            "Latitude": 30.356388888889,
            "Longitude": -81.635277777778,
            "aqi": 23,
            "DominantPollutant": "pm25",
            "datetime": "2020-04-21 16:00:00"
        },
        {
            "names": "San Francisco",
            "Latitude": 37.76595,
            "Longitude": -122.39902,
            "aqi": 25,
            "DominantPollutant": "pm25",
            "datetime": "2020-04-21 13:00:00"
        },
        {
            "names": "Charlotte",
            "Latitude": 35.213171,
            "Longitude": -80.874084,
            "aqi": 25,
            "DominantPollutant": "pm25",
            "datetime": "2020-04-21 16:00:00"
        },
        {
            "names": "Indianapolis",
            "Latitude": 39.787933,
            "Longitude": -86.13088,
            "aqi": 34,
            "DominantPollutant": "o3",
            "datetime": "2020-04-21 16:00:00"
        },
        {
            "names": "Seattle",
            "Latitude": 47.597222,
            "Longitude": -122.319722,
            "aqi": 27,
            "DominantPollutant": "o3",
            "datetime": "2020-04-21 11:00:00"
        },
        {
            "names": "Denver",
            "Latitude": 39.751184,
            "Longitude": -104.987625,
            "aqi": 25,
            "DominantPollutant": "pm25",
            "datetime": "2020-04-21 14:00:00"
        },
        {
            "names": "Washington",
            "Latitude": 38.8577,
            "Longitude": -77.05922,
            "aqi": 18,
            "DominantPollutant": "o3",
            "datetime": "2020-04-21 16:00:00"
        },
        {
            "names": "El Paso",
            "Latitude": 31.7682914,
            "Longitude": -106.5012595,
            "aqi": 40,
            "DominantPollutant": "o3",
            "datetime": "2020-04-21 14:00:00"
        },
        {
            "names": "Boston",
            "Latitude": 42.3584308,
            "Longitude": -71.0597732,
            "aqi": 42,
            "DominantPollutant": "pm25",
            "datetime": "2020-04-21 15:00:00"
        },
        {
            "names": "Nashville",
            "Latitude": 36.1767,
            "Longitude": -86.7386,
            "aqi": 30,
            "DominantPollutant": "pm25",
            "datetime": "2020-03-02 23:00:00"
        },
        {
            "names": "Portland",
            "Latitude": 45.496640911,
            "Longitude": -122.60287735,
            "aqi": 23,
            "DominantPollutant": "o3",
            "datetime": "2020-04-21 13:00:00"
        },
        {
            "names": "Las Vegas",
            "Latitude": 36.16396,
            "Longitude": -115.11393,
            "aqi": 19,
            "DominantPollutant": "pm25",
            "datetime": "2020-04-21 12:00:00"
        },
        {
            "names": "Detroit",
            "Latitude": 42.3149367,
            "Longitude": -83.0363633,
            "aqi": 13,
            "DominantPollutant": "pm25",
            "datetime": "2020-04-21 17:00:00"
        },
        {
            "names": "Oklahoma City",
            "Latitude": 35.502968,
            "Longitude": -97.577674,
            "aqi": 40,
            "DominantPollutant": "pm25",
            "datetime": "2020-04-21 15:00:00"
        },
        {
            "names": "Louisville",
            "Latitude": 38.288191,
            "Longitude": -85.741337,
            "aqi": 18,
            "DominantPollutant": "pm25",
            "datetime": "2020-04-21 16:00:00"
        },
        {
            "names": "Baltimore",
            "Latitude": 39.2981,
            "Longitude": -76.604698,
            "aqi": 5,
            "DominantPollutant": "pm25",
            "datetime": "2020-04-21 16:00:00"
        },
        {
            "names": "Milwaukee",
            "Latitude": 43.06122,
            "Longitude": -87.91352,
            "aqi": 35,
            "DominantPollutant": "o3",
            "datetime": "2020-04-21 15:00:00"
        },
        {
            "names": "Albuquerque",
            "Latitude": 35.0186,
            "Longitude": -106.651901,
            "aqi": 44,
            "DominantPollutant": "o3",
            "datetime": "2020-04-21 13:00:00"
        },
        {
            "names": "Tucson",
            "Latitude": 32.251846,
            "Longitude": -110.965296,
            "aqi": 45,
            "DominantPollutant": "o3",
            "datetime": "2020-04-21 13:00:00"
        },
        {
            "names": "Fresno",
            "Latitude": 36.78538,
            "Longitude": -119.77321,
            "aqi": 41,
            "DominantPollutant": "pm25",
            "datetime": "2020-04-21 13:00:00"
        },
        {
            "names": "Mesa",
            "Latitude": 33.410277777778,
            "Longitude": -111.865,
            "aqi": 42,
            "DominantPollutant": "o3",
            "datetime": "2020-04-21 14:00:00"
        },
        {
            "names": "Kansas City",
            "Latitude": 39.10465,
            "Longitude": -94.57055,
            "aqi": 23,
            "DominantPollutant": "pm25",
            "datetime": "2020-04-21 15:00:00"
        },
        {
            "names": "Colorado Springs",
            "Latitude": 38.848014,
            "Longitude": -104.828564,
            "aqi": 13,
            "DominantPollutant": "pm25",
            "datetime": "2020-04-21 14:00:00"
        },
        {
            "names": "Miami",
            "Latitude": 25.794722222222,
            "Longitude": -80.215555555556,
            "aqi": 66,
            "DominantPollutant": "pm25",
            "datetime": "2020-04-21 15:00:00"
        },
        {
            "names": "Raleigh",
            "Latitude": 35.856098,
            "Longitude": -78.574203,
            "aqi": 41,
            "DominantPollutant": "o3",
            "datetime": "2020-04-21 16:00:00"
        },
        {
            "names": "Richmond",
            "Latitude": 37.55652,
            "Longitude": -77.40027,
            "aqi": 19,
            "DominantPollutant": "o3",
            "datetime": "2020-04-21 16:00:00"
        },
        {
            "names": "Omaha",
            "Latitude": 41.2474,
            "Longitude": -95.9731,
            "aqi": 32,
            "DominantPollutant": "o3",
            "datetime": "2020-04-21 15:00:00"
        },
        {
            "names": "Oakland",
            "Latitude": 37.793635,
            "Longitude": -122.263356,
            "aqi": 26,
            "DominantPollutant": "o3",
            "datetime": "2020-04-21 13:00:00"
        },
        {
            "names": "Minneapolis",
            "Latitude": 44.9536,
            "Longitude": -93.2581,
            "aqi": 25,
            "DominantPollutant": "pm25",
            "datetime": "2020-04-21 15:00:00"
        },
        {
            "names": "Arlington",
            "Latitude": 32.6563574,
            "Longitude": -97.0885849,
            "aqi": 51,
            "DominantPollutant": "o3",
            "datetime": "2020-04-21 15:00:00"
        },
        {
            "names": "Tampa",
            "Latitude": 27.928333333333,
            "Longitude": -82.454444444444,
            "aqi": 19,
            "DominantPollutant": "o3",
            "datetime": "2020-04-21 16:00:00"
        },
        {
            "names": "Tulsa",
            "Latitude": 36.206699,
            "Longitude": -95.976402,
            "aqi": 43,
            "DominantPollutant": "o3",
            "datetime": "2020-04-21 15:00:00"
        },
        {
            "names": "New Orleans",
            "Latitude": 29.994444,
            "Longitude": -90.102778,
            "aqi": 36,
            "DominantPollutant": "o3",
            "datetime": "2020-04-21 15:00:00"
        },
        {
            "names": "Fayetteville",
            "Latitude": 35.041401,
            "Longitude": -78.953102,
            "aqi": 25,
            "DominantPollutant": "pm25",
            "datetime": "2020-04-21 16:00:00"
        },
        {
            "names": "Des Moines",
            "Latitude": 41.603056,
            "Longitude": -93.643056,
            "aqi": 30,
            "DominantPollutant": "o3",
            "datetime": "2020-04-21 15:00:00"
        },
        {
            "names": "Pittsburgh",
            "Latitude": 40.4045579,
            "Longitude": -79.9102686,
            "aqi": 37,
            "DominantPollutant": "o3",
            "datetime": "2020-04-21 13:00:00"
        },
        {
            "names": "Lancaster",
            "Latitude": 40.0467,
            "Longitude": -76.2833,
            "aqi": 38,
            "DominantPollutant": "o3",
            "datetime": "2020-04-21 15:00:00"
        },
        {
            "names": "Hartford",
            "Latitude": 41.771444,
            "Longitude": -72.679923,
            "aqi": 17,
            "DominantPollutant": "pm25",
            "datetime": "2020-04-21 16:00:00"
        },
        {
            "names": "Knoxville",
            "Latitude": 35.9803,
            "Longitude": -83.9306,
            "aqi": 15,
            "DominantPollutant": "pm25",
            "datetime": "2020-04-21 16:00:00"
        },
        {
            "names": "Charleston",
            "Latitude": 32.791,
            "Longitude": -79.959,
            "aqi": 41,
            "DominantPollutant": "pm25",
            "datetime": "2019-09-01 10:00:00"
        },
        {
            "names": "Harrisburg",
            "Latitude": 40.246992,
            "Longitude": -76.846988,
            "aqi": 39,
            "DominantPollutant": "o3",
            "datetime": "2020-04-21 15:00:00"
        },
        {
            "names": "Manchester",
            "Latitude": 53.48152,
            "Longitude": -2.237881,
            "aqi": 31,
            "DominantPollutant": "o3",
            "datetime": "2020-04-21 21:00:00"
        },
        {
            "names": "Jacksonville",
            "Latitude": 30.356388888889,
            "Longitude": -81.635277777778,
            "aqi": 23,
            "DominantPollutant": "pm25",
            "datetime": "2020-04-21 16:00:00"
        },
        {
            "names": "Lansing",
            "Latitude": 42.732535,
            "Longitude": -84.5555347,
            "aqi": 23,
            "DominantPollutant": "o3",
            "datetime": "2020-02-13 12:00:00"
        },
        {
            "names": "Fort Wayne",
            "Latitude": 41.094965,
            "Longitude": -85.101816,
            "aqi": 36,
            "DominantPollutant": "o3",
            "datetime": "2020-04-21 16:00:00"
        },
        {
            "names": "Cincinnati",
            "Latitude": 39.12886,
            "Longitude": -84.50404,
            "aqi": 39,
            "DominantPollutant": "o3",
            "datetime": "2020-04-21 16:00:00"
        },
        {
            "names": "Salt Lake City",
            "Latitude": 40.733501,
            "Longitude": -111.871696,
            "aqi": 48,
            "DominantPollutant": "o3",
            "datetime": "2020-04-21 15:00:00"
        },
        {
            "names": "Greenville",
            "Latitude": 35.638599,
            "Longitude": -77.358002,
            "aqi": 46,
            "DominantPollutant": "pm25",
            "datetime": "2020-04-21 16:00:00"
        },
        {
            "names": "Boise",
            "Latitude": 43.618889,
            "Longitude": -116.213611,
            "aqi": 38,
            "DominantPollutant": "o3",
            "datetime": "2020-04-21 12:00:00"
        }
    ]
}